City_ID,City,Country,Date,Lat,Lng,Max Temp,Humidity,Cloudiness,Wind Speed,Current Description,Rain inches (last 3 hours),Snow inches (last 3 hours)
0,Ribeira Grande,PT,2020-02-23 06:34:04,38.52,-28.7,53.46,82,4,9.78,clear sky,0,0
1,Sur,OM,2020-02-23 06:43:29,22.57,59.53,75.81,51,1,4.47,clear sky,0,0
2,Ushuaia,AR,2020-02-23 06:36:08,-54.8,-68.3,48.2,70,40,34.45,scattered clouds,0,0
3,Waw,SS,2020-02-23 06:46:52,7.7,28.0,78.22,13,36,8.81,scattered clouds,0,0
4,Pisco,PE,2020-02-23 06:37:47,-13.7,-76.22,73.4,88,75,6.93,broken clouds,0,0
5,Vanimo,PG,2020-02-23 06:41:49,-2.67,141.3,83.14,79,22,16.11,few clouds,0,0
6,Saskylakh,RU,2020-02-23 06:37:42,71.92,114.08,9.19,93,100,10.71,light snow,0,0.63
7,Sao Filipe,CV,2020-02-23 06:35:02,14.9,-24.5,67.03,81,100,14.16,overcast clouds,0,0
8,Narsaq,GL,2020-02-23 06:40:56,60.92,-46.05,24.8,85,100,8.05,heavy snow,0,0
9,Richards Bay,ZA,2020-02-23 06:41:25,-28.78,32.04,77.25,79,100,39.12,light rain,2.56,0
10,Vila Franca Do Campo,PT,2020-02-23 06:35:49,37.72,-25.43,57.2,82,40,3.36,scattered clouds,0,0
11,Victoria,HK,2020-02-23 06:37:43,22.29,114.16,79.0,41,27,6.93,scattered clouds,0,0
12,Castro,BR,2020-02-23 06:37:08,-24.79,-50.01,55.99,88,88,7.56,overcast clouds,0,0
13,Mudgee,AU,2020-02-23 06:44:03,-32.59,149.59,72.0,60,75,8.05,broken clouds,0,0
14,Abu Kamal,SY,2020-02-23 06:46:54,34.45,40.92,56.41,66,0,5.06,clear sky,0,0
15,Busselton,AU,2020-02-23 06:37:00,-33.65,115.33,87.01,29,99,8.97,overcast clouds,0,0
16,Mar Del Plata,AR,2020-02-23 06:37:13,-38.0,-57.56,57.0,93,0,6.93,clear sky,0,0
17,Dikson,RU,2020-02-23 06:37:06,73.51,80.55,26.46,96,100,15.57,light snow,0,0.5
18,Nisia Floresta,BR,2020-02-23 06:46:55,-6.09,-35.21,80.6,83,20,3.36,few clouds,0,0
19,Buraydah,SA,2020-02-23 06:46:55,26.33,43.98,59.0,51,6,9.17,clear sky,0,0
20,Balabac,PH,2020-02-23 06:46:55,7.99,117.06,83.84,63,17,20.71,few clouds,0,0
21,East London,ZA,2020-02-23 06:37:40,-33.02,27.91,64.4,68,96,11.41,light rain,0.19,0
22,Carnduff,CA,2020-02-23 06:46:56,49.17,-101.8,28.99,87,54,10.0,broken clouds,0,0
23,Puerto Ayora,EC,2020-02-23 06:37:09,-0.74,-90.35,78.01,100,68,4.63,light rain,0.56,0
24,Kirakira,SB,2020-02-23 06:46:56,-10.45,161.92,81.25,84,23,7.61,light rain,2.38,0
25,Saint-Philippe,RE,2020-02-23 06:33:36,-21.36,55.77,82.4,65,100,1.12,light rain,0.5,0
26,Old Orchard Beach,US,2020-02-23 06:46:56,43.52,-70.38,30.99,68,1,5.14,clear sky,0,0
27,Albany,US,2020-02-23 06:35:17,42.6,-73.97,28.99,73,1,4.85,clear sky,0,0
28,Pogranichnyy,RU,2020-02-23 06:46:57,44.41,131.38,30.34,63,0,7.0,clear sky,0,0
29,Raga,SS,2020-02-23 06:43:34,8.46,25.68,71.55,15,0,7.67,clear sky,0,0
30,Khatanga,RU,2020-02-23 06:34:19,71.97,102.5,13.98,77,100,16.46,overcast clouds,0,0
31,Pevek,RU,2020-02-23 06:37:49,69.7,170.31,-10.62,98,100,7.54,light snow,0,0.19
32,Rikitea,PF,2020-02-23 06:36:58,-23.12,-134.97,79.83,64,6,2.84,clear sky,0,0
33,Voh,NC,2020-02-23 06:46:58,-20.97,164.7,80.35,77,30,14.92,scattered clouds,0,0
34,Te Anau,NZ,2020-02-23 06:37:59,-45.42,167.72,59.31,67,40,7.76,scattered clouds,0,0
35,Port Alfred,ZA,2020-02-23 06:37:00,-33.59,26.89,69.01,72,55,3.0,light rain,0.13,0
36,Whitley Bay,GB,2020-02-23 06:46:59,55.04,-1.45,41.0,100,75,5.82,light rain,0,0
37,Jamestown,US,2020-02-23 06:34:07,42.1,-79.24,37.0,54,1,8.05,clear sky,0,0
38,New Norfolk,AU,2020-02-23 06:34:03,-42.78,147.06,77.0,46,40,18.34,scattered clouds,0,0
39,Yumen,CN,2020-02-23 06:42:14,40.28,97.2,44.76,20,0,29.15,clear sky,0,0
40,Mosetse,BW,2020-02-23 06:41:40,-20.75,26.65,78.69,60,76,5.5,broken clouds,0,0
41,Namibe,AO,2020-02-23 06:37:11,-15.2,12.15,75.02,77,76,11.77,broken clouds,0,0
42,Vaini,TO,2020-02-23 06:34:23,-21.2,-175.2,80.6,83,75,11.41,broken clouds,0,0
43,Kamaishi,JP,2020-02-23 06:47:00,39.27,141.88,35.6,74,75,18.34,light shower snow,0,0
44,Atuona,PF,2020-02-23 06:37:11,-9.8,-139.03,81.86,75,0,13.65,clear sky,0,0
45,Bethel,US,2020-02-23 06:33:34,41.37,-73.41,33.01,73,1,3.76,clear sky,0,0
46,Aklavik,CA,2020-02-23 06:37:20,68.22,-135.01,-4.0,83,90,4.7,light snow,0,0
47,Nikolskoye,RU,2020-02-23 06:37:45,59.7,30.79,37.99,80,90,13.42,overcast clouds,0,0
48,Mataura,NZ,2020-02-23 06:37:03,-46.19,168.86,59.0,80,57,15.99,broken clouds,0,0
49,Bredasdorp,ZA,2020-02-23 06:34:06,-34.53,20.04,68.0,56,10,8.05,clear sky,0,0
50,Punta Arenas,CL,2020-02-23 06:34:07,-53.15,-70.92,51.01,62,70,21.0,broken clouds,0,0
51,Karratha,AU,2020-02-23 06:35:29,-20.74,116.85,81.82,75,4,19.62,clear sky,0,0
52,Cherskiy,RU,2020-02-23 06:33:55,68.75,161.3,-20.87,97,95,5.99,overcast clouds,0,0
53,Chokurdakh,RU,2020-02-23 06:34:08,70.63,147.92,-12.41,97,100,2.21,overcast clouds,0,0
54,Sao Francisco,BR,2020-02-23 06:47:02,-15.95,-44.86,70.5,97,100,3.58,light rain,2.44,0
55,Korla,CN,2020-02-23 06:47:03,41.76,86.15,46.99,50,35,4.0,scattered clouds,0,0
56,Barrow,US,2020-02-23 06:44:31,71.29,-156.79,-18.4,75,1,9.17,clear sky,0,0
57,Portland,US,2020-02-23 06:37:41,45.52,-122.68,45.0,81,75,0.45,broken clouds,0,0
58,Kodiak,US,2020-02-23 06:37:20,57.79,-152.41,19.4,48,1,11.41,clear sky,0,0
59,Ayr,GB,2020-02-23 06:47:04,55.46,-4.63,39.2,93,75,14.99,light intensity shower rain,0,0
60,Beringovskiy,RU,2020-02-23 06:41:31,63.05,179.32,-9.49,91,50,4.68,scattered clouds,0,0
61,Avarua,CK,2020-02-23 06:34:05,-21.21,-159.78,82.4,88,99,2.24,moderate rain,4.31,0
62,Bowen,AU,2020-02-23 06:47:04,-20.02,148.23,78.8,88,75,2.24,broken clouds,0,0
63,Kapaa,US,2020-02-23 06:44:49,22.08,-159.32,73.4,83,90,6.93,overcast clouds,0,0
64,Kokstad,ZA,2020-02-23 06:47:05,-30.55,29.42,53.44,96,97,4.05,light rain,0.25,0
65,Kavieng,PG,2020-02-23 06:34:18,-2.57,150.8,84.02,75,15,12.44,few clouds,0,0
66,Thompson,CA,2020-02-23 06:33:57,55.74,-97.86,14.0,72,90,5.82,overcast clouds,0,0
67,Bilma,NE,2020-02-23 06:37:52,18.69,12.92,62.22,27,76,14.38,broken clouds,0,0
68,Gizo,SB,2020-02-23 06:37:35,-8.1,156.84,82.6,74,31,7.34,light rain,1.38,0
69,Bubaque,GW,2020-02-23 06:42:30,11.28,-15.83,77.94,62,66,12.41,broken clouds,0,0
70,Oussouye,SN,2020-02-23 06:37:58,12.48,-16.55,73.4,88,76,6.93,broken clouds,0,0
71,San Patricio,MX,2020-02-23 06:37:53,19.22,-104.7,75.33,81,0,5.44,clear sky,0,0
72,Ahipara,NZ,2020-02-23 06:42:19,-35.17,173.17,66.99,70,17,23.04,few clouds,0,0
73,Abeokuta,NG,2020-02-23 06:47:07,7.15,3.35,82.4,88,20,9.17,few clouds,0,0
74,Kingisepp,RU,2020-02-23 06:47:07,59.37,28.61,35.74,78,100,11.74,overcast clouds,0,0
75,Asau,RO,2020-02-23 06:41:43,46.43,26.4,43.0,69,100,4.7,overcast clouds,0,0
76,Juazeiro,BR,2020-02-23 06:47:08,-9.41,-40.5,78.8,83,40,4.7,scattered clouds,0,0
77,Adrar,MR,2020-02-23 06:37:21,20.5,-10.07,73.87,12,49,13.42,scattered clouds,0,0
78,Port Blair,IN,2020-02-23 06:40:41,11.67,92.75,87.8,62,20,11.41,haze,0,0
79,Erzin,TR,2020-02-23 06:44:18,36.96,36.2,54.0,100,75,2.24,broken clouds,0,0
80,Mount Isa,AU,2020-02-23 06:34:34,-20.73,139.5,89.6,52,75,10.29,broken clouds,0,0
81,Nishihara,JP,2020-02-23 06:44:02,26.18,127.76,69.8,56,20,11.41,few clouds,0,0
82,Provideniya,RU,2020-02-23 06:38:02,64.38,-173.3,-10.86,90,0,2.15,clear sky,0,0
83,Shatsk,RU,2020-02-23 06:43:19,54.03,41.71,30.76,90,100,18.88,overcast clouds,0,0
84,Homer,US,2020-02-23 06:45:49,59.64,-151.55,19.4,79,90,3.36,light snow,0,0
85,Aras,ES,2020-02-23 06:42:43,42.56,-2.36,35.01,56,47,1.12,scattered clouds,0,0
86,Yar-Sale,RU,2020-02-23 06:37:31,66.83,70.83,23.16,92,83,13.85,broken clouds,0,0
87,Geraldton,AU,2020-02-23 06:40:11,-28.77,114.6,87.8,52,0,18.34,clear sky,0,0
88,Severo-Kurilsk,RU,2020-02-23 06:41:40,50.68,156.12,19.09,89,100,21.41,light snow,0,0.19
89,Aykhal,RU,2020-02-23 06:43:10,66.0,111.5,3.2,84,23,4.47,few clouds,0,0
90,Guerrero Negro,MX,2020-02-23 06:47:11,27.98,-114.06,58.08,75,91,13.49,overcast clouds,0,0
91,Acapulco,MX,2020-02-23 06:43:01,16.86,-99.89,78.8,78,5,3.36,clear sky,0,0
92,Butaritari,KI,2020-02-23 06:37:28,3.07,172.79,84.72,76,22,9.73,light rain,0.88,0
93,Zhanaozen,KZ,2020-02-23 06:41:05,43.3,52.8,43.57,76,100,11.68,overcast clouds,0,0
94,Dongsheng,CN,2020-02-23 06:47:12,39.82,109.98,47.44,21,0,5.73,clear sky,0,0
95,Carnarvon,AU,2020-02-23 06:42:20,-24.87,113.63,86.0,55,0,16.11,clear sky,0,0
96,Guozhen,CN,2020-02-23 06:47:12,34.37,107.36,59.38,32,32,7.0,scattered clouds,0,0
97,Olafsvik,IS,2020-02-23 06:34:28,64.89,-23.71,31.26,64,93,20.83,light snow,0,0.56
98,Port Elizabeth,ZA,2020-02-23 06:37:16,-33.92,25.57,66.2,68,40,5.82,scattered clouds,0,0
99,Bay Roberts,CA,2020-02-23 06:47:13,47.6,-53.26,28.99,86,75,17.22,light shower snow,0,0
100,Ancud,CL,2020-02-23 06:44:55,-41.87,-73.82,55.09,84,0,1.45,clear sky,0,0
101,Kapustin Yar,RU,2020-02-23 06:47:13,48.58,45.74,34.2,80,100,9.84,overcast clouds,0,0
102,Mahebourg,MU,2020-02-23 06:47:13,-20.41,57.7,82.99,78,75,9.17,broken clouds,0,0
103,Edeia,BR,2020-02-23 06:47:13,-17.34,-49.93,69.89,95,76,2.28,light rain,0.5,0
104,Qaanaaq,GL,2020-02-23 06:44:38,77.48,-69.36,-13.32,90,99,2.62,overcast clouds,0,0
105,Kapoeta,SS,2020-02-23 06:47:14,4.77,33.59,91.9,30,58,15.9,broken clouds,0,0
106,Gigmoto,PH,2020-02-23 06:47:14,13.78,124.39,80.19,78,8,17.67,light rain,1,0
107,Hofn,IS,2020-02-23 06:41:16,64.25,-15.21,33.8,94,100,9.24,snow,0,2.13
108,Kloulklubed,PW,2020-02-23 06:43:14,7.04,134.26,84.2,79,75,12.75,broken clouds,0,0
109,Cidreira,BR,2020-02-23 06:35:00,-30.18,-50.21,66.49,76,45,8.28,light rain,0.25,0
110,Cape Town,ZA,2020-02-23 06:44:33,-33.93,18.42,71.01,52,0,4.7,clear sky,0,0
111,Wanning,CN,2020-02-23 06:44:05,18.8,110.4,74.34,71,34,9.64,light rain,0.31,0
112,Hambantota,LK,2020-02-23 06:37:39,6.12,81.12,86.0,79,40,19.46,scattered clouds,0,0
113,Constitucion,CL,2020-02-23 06:34:41,-35.33,-72.42,50.65,90,8,2.42,clear sky,0,0
114,Faya,SA,2020-02-23 06:40:42,18.39,42.45,66.2,55,59,13.87,broken clouds,0,0
115,Hobart,AU,2020-02-23 06:44:45,-42.88,147.33,77.0,46,40,18.34,scattered clouds,0,0
116,Nemuro,JP,2020-02-23 06:43:40,43.32,145.57,32.0,97,75,18.34,broken clouds,0,0
117,Husavik,IS,2020-02-23 06:37:49,66.04,-17.34,21.78,67,100,7.87,overcast clouds,0,0
118,Buchanan,LR,2020-02-23 06:41:09,5.88,-10.05,77.0,94,40,4.7,mist,0,0
119,Trencianske Teplice,SK,2020-02-23 06:47:17,48.91,18.17,48.99,81,75,6.93,broken clouds,0,0
120,Torbay,CA,2020-02-23 06:34:18,47.67,-52.73,28.99,86,75,17.22,light shower snow,0,0
121,Sobolevo,RU,2020-02-23 06:47:17,54.43,31.9,37.08,83,100,15.66,light snow,0,0.94
122,Khandyga,RU,2020-02-23 06:37:53,62.67,135.6,4.26,89,97,0.31,overcast clouds,0,0
123,Hermanus,ZA,2020-02-23 06:47:18,-34.42,19.23,69.01,69,0,11.99,clear sky,0,0
124,Leningradskiy,RU,2020-02-23 06:47:18,69.38,178.42,-13.36,95,100,7.31,light snow,0,0.13
125,Yellowknife,CA,2020-02-23 06:42:55,62.46,-114.35,-5.01,70,90,5.82,light snow,0,0
126,Berdigestyakh,RU,2020-02-23 06:47:19,62.1,126.7,-0.06,93,100,3.29,overcast clouds,0,0
127,Ouargaye,BF,2020-02-23 06:47:19,11.5,0.06,76.8,17,0,13.35,clear sky,0,0
128,Saint-Augustin,CA,2020-02-23 06:37:57,51.23,-58.65,22.53,93,95,17.78,overcast clouds,0,0
129,Suhbaatar,MN,2020-02-23 06:47:19,50.23,106.21,20.01,82,71,2.44,broken clouds,0,0
130,Luanda,AO,2020-02-23 06:41:47,-8.84,13.23,78.8,94,75,3.36,broken clouds,0,0
131,Norman Wells,CA,2020-02-23 06:32:53,65.28,-126.83,5.0,84,90,0.83,light snow,0,0
132,Bluff,NZ,2020-02-23 06:47:20,-46.6,168.33,59.0,81,40,15.01,scattered clouds,0,0
133,Sindgi,IN,2020-02-23 06:47:20,16.92,76.23,87.71,24,0,14.27,clear sky,0,0
134,Isangel,VU,2020-02-23 06:40:42,-19.55,169.27,79.56,77,26,16.02,scattered clouds,0,0
135,Tigil,RU,2020-02-23 06:41:44,57.8,158.67,13.42,85,91,9.91,overcast clouds,0,0
136,Tasiilaq,GL,2020-02-23 06:47:21,65.61,-37.64,14.0,61,0,1.12,clear sky,0,0
137,Souillac,MU,2020-02-23 06:32:56,-20.52,57.52,84.0,78,75,9.17,broken clouds,0,0
138,Bambous Virieux,MU,2020-02-23 06:37:28,-20.34,57.76,82.99,78,75,9.17,broken clouds,0,0
139,Portoferraio,IT,2020-02-23 06:47:22,42.81,10.31,46.99,87,75,6.58,broken clouds,0,0
140,Coquimbo,CL,2020-02-23 06:37:45,-29.95,-71.34,60.44,84,51,3.62,broken clouds,0,0
141,Ostrovnoy,RU,2020-02-23 06:40:54,68.05,39.51,30.13,91,100,23.17,light snow,0,0.37
142,Oudtshoorn,ZA,2020-02-23 06:47:22,-33.59,22.2,66.2,63,20,5.82,few clouds,0,0
143,Bandarbeyla,SO,2020-02-23 06:37:58,9.49,50.81,78.28,70,76,16.46,broken clouds,0,0
144,Kalmunai,LK,2020-02-23 06:42:08,7.42,81.82,82.02,78,100,17.9,light rain,0.5,0
145,Los Negros,BO,2020-02-23 06:47:23,-17.73,-63.43,69.8,73,75,11.41,broken clouds,0,0
146,Iranshahr,IR,2020-02-23 06:44:12,27.2,60.68,73.4,43,0,3.58,clear sky,0,0
147,Bozeman,US,2020-02-23 06:47:23,45.68,-111.04,26.6,67,1,5.01,clear sky,0,0
148,General Pico,AR,2020-02-23 06:46:01,-35.66,-63.76,57.36,44,0,7.45,clear sky,0,0
149,Carutapera,BR,2020-02-23 06:39:54,-1.2,-46.02,81.5,81,100,17.27,light rain,1.44,0
150,Verkh-Usugli,RU,2020-02-23 06:47:24,52.7,115.17,24.58,52,5,5.77,clear sky,0,0
151,Temir,KZ,2020-02-23 06:47:24,49.14,57.13,19.08,95,83,9.01,broken clouds,0,0
152,Rivera,UY,2020-02-23 06:47:24,-30.91,-55.55,52.75,86,0,3.53,clear sky,0,0
153,San Andres,CO,2020-02-23 06:41:19,12.58,-81.7,78.8,78,20,6.93,few clouds,0,0
154,Lagoa,PT,2020-02-23 06:47:25,39.05,-27.98,58.6,75,0,12.48,clear sky,0,0
155,Puntarenas,CR,2020-02-23 06:47:25,9.98,-84.84,69.8,49,100,17.22,overcast clouds,0,0
156,Palmer,US,2020-02-23 06:47:25,42.16,-72.33,33.01,79,1,3.13,clear sky,0,0
157,Ola,RU,2020-02-23 06:40:50,59.58,151.28,2.03,92,100,2.98,light snow,0,0.13
158,Tuktoyaktuk,CA,2020-02-23 06:47:25,69.45,-133.04,1.4,84,90,4.7,light snow,0,0
159,Kawai,JP,2020-02-23 06:47:26,34.23,135.85,55.0,46,75,12.75,broken clouds,0,0
160,Kaitangata,NZ,2020-02-23 06:44:55,-46.28,169.85,62.01,62,70,20.0,broken clouds,0,0
161,Nuuk,GL,2020-02-23 06:33:43,64.18,-51.72,17.6,92,100,10.29,light snow,0,0
162,Hamilton,US,2020-02-23 06:33:42,39.18,-84.53,35.6,79,1,4.94,clear sky,0,0
163,Bumba,CD,2020-02-23 06:43:20,2.18,22.47,75.38,52,98,1.61,overcast clouds,0,0
164,Hohhot,CN,2020-02-23 06:46:07,40.81,111.65,44.6,24,0,11.18,clear sky,0,0
165,Saint-Louis,SN,2020-02-23 06:47:27,16.33,-15.0,69.8,46,100,6.93,overcast clouds,0,0
166,Talnakh,RU,2020-02-23 06:37:59,69.49,88.4,10.4,85,75,29.08,shower snow,0,0
167,Shenjiamen,CN,2020-02-23 06:47:27,29.96,122.3,51.8,62,0,10.87,clear sky,0,0
168,La Joya,MX,2020-02-23 06:47:28,18.67,-99.47,66.0,50,0,2.51,clear sky,0,0
169,Maamba,ZM,2020-02-23 06:47:28,-17.37,27.15,75.79,79,97,1.83,overcast clouds,0,0
170,Georgetown,MY,2020-02-23 06:34:54,5.41,100.34,89.6,52,20,12.75,few clouds,0,0
171,Bilibino,RU,2020-02-23 06:43:20,68.05,166.44,-25.38,99,99,1.72,overcast clouds,0,0
172,Longyearbyen,SJ,2020-02-23 06:37:32,78.22,15.64,-4.0,70,20,10.29,few clouds,0,0
173,Beinamar,TD,2020-02-23 06:47:29,8.67,15.38,69.44,16,0,3.27,clear sky,0,0
174,Wageningen,NL,2020-02-23 06:47:29,51.97,5.67,48.99,100,75,8.05,moderate rain,0,0
175,Hithadhoo,MV,2020-02-23 06:34:35,-0.6,73.08,82.44,79,100,13.71,overcast clouds,0,0
176,Sitka,US,2020-02-23 06:40:46,57.05,-135.33,37.4,74,90,13.87,overcast clouds,0,0
177,Vladyslavivka,UA,2020-02-23 06:47:30,45.17,35.37,39.31,76,15,5.59,few clouds,0,0
178,Ponta Do Sol,PT,2020-02-23 06:37:48,32.67,-17.1,70.0,77,20,18.34,few clouds,0,0
179,Linxia,CN,2020-02-23 06:47:30,35.6,103.21,46.22,21,63,4.99,broken clouds,0,0
180,Nenjiang,CN,2020-02-23 06:44:07,49.18,125.22,15.89,89,100,5.28,overcast clouds,0,0
181,Kamenka,RU,2020-02-23 06:47:30,51.32,42.77,32.0,95,79,11.99,light snow,0,0.44
182,Shingu,JP,2020-02-23 06:40:49,33.73,135.98,51.8,43,20,17.22,few clouds,0,0
183,Warmbad,NA,2020-02-23 06:47:31,-28.45,18.73,69.46,46,0,14.2,clear sky,0,0
184,Touros,BR,2020-02-23 06:32:40,-5.2,-35.46,78.8,88,40,2.24,scattered clouds,0,0
185,Nanortalik,GL,2020-02-23 06:41:59,60.14,-45.24,27.16,69,100,9.08,light snow,0,1.06
186,Chuy,UY,2020-02-23 06:47:32,-33.7,-53.46,58.23,90,0,3.38,clear sky,0,0
187,Port Lincoln,AU,2020-02-23 06:36:05,-34.73,135.87,79.48,36,16,7.43,few clouds,0,0
188,Yulara,AU,2020-02-23 06:34:09,-25.24,130.99,98.6,6,0,11.41,clear sky,0,0
189,Bathsheba,BB,2020-02-23 06:43:32,13.22,-59.52,75.2,88,20,4.7,few clouds,0,0
190,Mattru,SL,2020-02-23 06:47:33,7.62,-11.83,76.71,94,10,2.17,clear sky,0,0
191,Vieux-Habitants,GP,2020-02-23 06:47:33,16.06,-61.77,69.8,94,1,3.36,clear sky,0,0
192,Antalaha,MG,2020-02-23 06:43:07,-14.9,50.28,81.25,77,100,12.41,overcast clouds,0,0
193,Lasa,IT,2020-02-23 06:47:33,46.62,10.7,39.0,69,40,8.05,scattered clouds,0,0
194,Byron Bay,AU,2020-02-23 06:47:34,-28.65,153.62,75.2,78,100,11.41,light rain,0.56,0
195,Roseburg,US,2020-02-23 06:47:34,43.22,-123.34,44.6,80,1,3.22,clear sky,0,0
196,Jalu,LY,2020-02-23 06:42:13,29.03,21.55,51.62,67,24,11.43,light rain,0.5,0
197,Stornoway,GB,2020-02-23 06:40:57,58.21,-6.39,37.99,86,31,18.34,light rain,0,0
198,Jiwani,PK,2020-02-23 06:47:34,25.05,61.74,71.78,65,0,2.66,clear sky,0,0
199,Copiapo,CL,2020-02-23 06:47:34,-27.37,-70.33,54.66,92,0,2.15,clear sky,0,0
200,Karaton,ID,2020-02-23 06:47:35,-6.34,106.1,87.8,66,40,10.29,scattered clouds,0,0
201,Radviliskis,LT,2020-02-23 06:47:35,55.82,23.53,39.2,77,90,19.46,overcast clouds,0,0
202,Zhigansk,RU,2020-02-23 06:47:03,66.77,123.37,-6.84,97,97,7.38,overcast clouds,0,0
203,Chatrapur,IN,2020-02-23 06:47:35,19.35,84.98,86.18,27,0,5.7,clear sky,0,0
204,Rio Bueno,CL,2020-02-23 06:47:36,-40.32,-72.97,50.14,90,0,2.01,clear sky,0,0
205,Menomonie,US,2020-02-23 06:47:18,44.88,-91.92,33.8,100,75,4.83,broken clouds,0,0
206,Myitkyina,MM,2020-02-23 06:47:36,25.38,97.4,92.62,19,88,1.12,overcast clouds,0,0
207,Marks,RU,2020-02-23 06:47:36,51.71,46.75,30.0,98,100,3.0,overcast clouds,0,0
208,Faanui,PF,2020-02-23 06:44:57,-16.48,-151.75,83.34,70,37,9.15,scattered clouds,0,0
209,Margate,GB,2020-02-23 06:41:57,51.38,1.39,55.0,87,75,31.09,light rain,0,0
210,Ishigaki,JP,2020-02-23 06:47:37,24.34,124.16,73.4,69,75,19.46,broken clouds,0,0
211,Tarakan,ID,2020-02-23 06:47:37,3.3,117.63,85.33,64,16,12.44,few clouds,0,0
212,Opuwo,NA,2020-02-23 06:37:39,-18.06,13.84,72.75,33,84,1.07,broken clouds,0,0
213,Aranda De Duero,ES,2020-02-23 06:47:37,41.67,-3.69,39.76,61,93,1.1,overcast clouds,0,0
214,Port Hardy,CA,2020-02-23 06:39:48,50.7,-127.42,41.0,75,90,12.75,overcast clouds,0,0
215,Baft,IR,2020-02-23 06:47:38,29.23,56.61,50.2,36,0,6.04,clear sky,0,0
216,Dongkan,CN,2020-02-23 06:47:38,34.0,119.83,57.83,42,0,12.5,clear sky,0,0
217,Laguna,US,2020-02-23 06:41:56,38.42,-121.42,53.01,76,1,6.93,clear sky,0,0
218,Arraial Do Cabo,BR,2020-02-23 06:47:38,-22.97,-42.03,74.25,77,100,15.32,light rain,0.5,0
219,Wattegama,LK,2020-02-23 06:47:39,6.8,81.48,86.0,79,40,19.46,scattered clouds,0,0
220,Champerico,GT,2020-02-23 06:40:19,14.3,-91.92,74.97,82,0,2.04,clear sky,0,0
221,Codajas,BR,2020-02-23 06:47:39,-3.84,-62.06,73.13,93,100,2.46,overcast clouds,0,0
222,Groa,NO,2020-02-23 06:47:39,62.65,8.72,35.6,80,100,36.91,snow,0,2.13
223,Union De Reyes,CU,2020-02-23 06:47:39,22.8,-81.54,68.0,77,20,8.05,few clouds,0,0
224,Arlit,NE,2020-02-23 06:42:47,18.74,7.39,68.61,17,65,10.83,broken clouds,0,0
225,Hilo,US,2020-02-23 06:47:40,19.73,-155.09,69.8,77,20,1.83,few clouds,0,0
226,Surt,LY,2020-02-23 06:47:40,31.21,16.59,52.66,66,8,11.23,clear sky,0,0
227,Hurghada,EG,2020-02-23 06:47:40,27.26,33.81,63.07,69,64,17.4,broken clouds,0,0
228,Solnechnyy,RU,2020-02-23 06:35:35,50.72,136.63,14.52,91,24,3.85,few clouds,0,0
229,Shevchenkove,UA,2020-02-23 06:47:41,49.7,37.17,33.8,86,40,11.18,scattered clouds,0,0
230,Nizhniy Odes,RU,2020-02-23 06:47:41,63.64,54.86,29.03,85,100,16.91,light snow,0,0.12
231,Kendari,ID,2020-02-23 06:47:41,-3.94,122.5,85.95,72,48,5.64,moderate rain,3.56,0
232,Jiuquan,CN,2020-02-23 06:42:01,39.74,98.52,40.86,18,0,4.72,clear sky,0,0
233,Rockhampton,AU,2020-02-23 06:47:42,-23.38,150.5,77.0,88,90,9.17,light rain,0,0
234,Lebu,CL,2020-02-23 06:47:42,-37.62,-73.65,49.73,95,3,1.99,clear sky,0,0
235,Kailua,US,2020-02-23 06:40:22,21.4,-157.74,75.2,64,20,10.29,few clouds,0,0
236,Estelle,US,2020-02-23 06:47:43,29.85,-90.11,52.0,81,1,3.36,clear sky,0,0
237,Roald,NO,2020-02-23 06:41:08,62.58,6.13,39.2,69,75,17.22,broken clouds,0,0
238,Vardo,NO,2020-02-23 06:47:43,70.37,31.11,31.5,83,83,12.48,broken clouds,0,0
239,Manakara,MG,2020-02-23 06:44:02,-22.13,48.02,79.61,75,93,4.45,overcast clouds,0,0
240,Flinders,AU,2020-02-23 06:47:43,-34.58,150.86,77.0,64,100,17.22,overcast clouds,0,0
241,Chipinge,ZW,2020-02-23 06:47:44,-20.19,32.62,77.09,76,81,1.34,broken clouds,0,0
242,Karpogory,RU,2020-02-23 06:43:55,64.0,44.45,32.79,88,100,19.62,light snow,0,0.44
243,Pangnirtung,CA,2020-02-23 06:39:20,66.15,-65.71,-34.62,92,37,1.81,scattered clouds,0,0
244,Rio Gallegos,AR,2020-02-23 06:44:51,-51.62,-69.22,51.8,63,17,21.92,few clouds,0,0
245,Zeya,RU,2020-02-23 06:47:44,53.75,127.27,8.73,87,100,3.0,overcast clouds,0,0
246,Oistins,BB,2020-02-23 06:47:45,13.07,-59.53,75.2,88,20,4.7,few clouds,0,0
247,Cap-Aux-Meules,CA,2020-02-23 06:45:18,47.38,-61.86,22.46,92,56,15.1,broken clouds,0,0
248,Alta Floresta,BR,2020-02-23 06:47:45,-9.88,-56.09,71.01,98,100,2.01,light rain,2.81,0
249,Preobrazheniye,RU,2020-02-23 06:45:21,42.9,133.91,28.08,59,0,7.27,clear sky,0,0
250,Pauini,BR,2020-02-23 06:47:46,-7.71,-66.98,73.06,99,100,3.36,overcast clouds,0,0
251,Tuatapere,NZ,2020-02-23 06:37:46,-46.13,167.68,59.0,80,27,15.99,scattered clouds,0,0
252,Cine,TR,2020-02-23 06:47:46,37.61,28.06,50.0,83,20,2.24,few clouds,0,0
253,Inhambane,MZ,2020-02-23 06:43:40,-23.86,35.38,86.0,74,20,4.7,few clouds,0,0
254,Castanos,MX,2020-02-23 06:47:47,26.78,-101.42,55.0,65,92,1.99,overcast clouds,0,0
255,Saint George,US,2020-02-23 06:43:00,37.1,-113.58,44.01,100,90,4.7,light rain,0,0
256,Mutis,CO,2020-02-23 06:47:47,6.23,-77.4,79.84,77,97,10.16,overcast clouds,0,0
257,Martapura,ID,2020-02-23 06:47:47,-3.42,114.85,83.86,83,35,2.55,moderate rain,6.94,0
258,Stillwater,US,2020-02-23 06:47:00,36.12,-97.06,51.8,57,40,5.82,scattered clouds,0,0
259,Magadan,RU,2020-02-23 06:41:09,59.57,150.8,2.17,91,100,3.36,overcast clouds,0,0
260,Zheleznodorozhnyy,RU,2020-02-23 06:47:48,55.75,38.0,35.01,96,90,13.42,light snow,0,0
261,Oksfjord,NO,2020-02-23 06:47:48,70.24,22.35,32.0,80,66,10.29,broken clouds,0,0
262,Birjand,IR,2020-02-23 06:43:01,32.87,59.22,62.6,36,18,12.08,few clouds,0,0
263,Cabo San Lucas,MX,2020-02-23 06:47:18,22.89,-109.91,71.01,55,69,1.01,broken clouds,0,0
264,Sisimiut,GL,2020-02-23 06:41:15,66.94,-53.67,-5.42,58,53,5.14,broken clouds,0,0
265,Palana,RU,2020-02-23 06:41:22,59.12,159.97,11.16,94,100,6.44,light snow,0,0.19
266,Namwala,ZM,2020-02-23 06:47:49,-15.75,26.44,71.62,89,100,3.44,overcast clouds,0,0
267,Kirkwall,GB,2020-02-23 06:47:49,58.98,-2.96,41.0,75,80,25.28,light rain,0.25,0
268,Fort Nelson,CA,2020-02-23 06:39:00,58.81,-122.7,19.4,67,5,3.36,clear sky,0,0
269,Chilca,PE,2020-02-23 06:47:50,-12.52,-76.74,75.2,83,75,8.05,broken clouds,0,0
270,Indramayu,ID,2020-02-23 06:47:50,-6.33,108.32,86.65,70,11,16.75,light rain,0.88,0
271,Tiksi,RU,2020-02-23 06:41:41,71.69,128.87,-9.8,93,98,5.7,overcast clouds,0,0
272,Yeniseysk,RU,2020-02-23 06:47:51,58.45,92.17,25.66,89,94,2.91,overcast clouds,0,0
273,Sierpc,PL,2020-02-23 06:47:51,52.86,19.67,38.44,80,100,17.18,overcast clouds,0,0
274,Lively,CA,2020-02-23 06:47:51,46.43,-81.15,28.4,100,90,11.41,fog,0,0
275,Mogadishu,SO,2020-02-23 06:47:51,2.04,45.34,84.2,66,40,12.75,scattered clouds,0,0
276,San Quintin,MX,2020-02-23 06:42:03,30.48,-115.95,56.93,79,0,7.74,clear sky,0,0
277,Roma,US,2020-02-23 06:36:18,43.21,-75.46,28.0,85,1,7.4,clear sky,0,0
278,Clyde River,CA,2020-02-23 06:47:52,70.47,-68.59,-25.6,74,1,4.7,clear sky,0,0
279,Corinto,GR,2020-02-23 06:47:52,37.94,22.96,46.99,75,75,8.05,broken clouds,0,0
280,Gat,IL,2020-02-23 06:41:03,31.61,34.76,55.0,76,75,2.24,broken clouds,0,0
281,Southport,GB,2020-02-23 06:47:53,53.65,-3.01,45.0,100,75,3.36,light intensity drizzle rain,0,0
282,Moose Factory,CA,2020-02-23 06:44:28,51.26,-80.61,15.8,92,90,4.7,overcast clouds,0,0
283,Kutum,SD,2020-02-23 06:47:53,14.2,24.67,59.52,19,0,5.53,clear sky,0,0
284,Airai,TL,2020-02-23 06:41:00,-8.93,125.41,77.92,78,22,2.37,light rain,2.31,0
285,Paso De Los Toros,UY,2020-02-23 06:47:53,-32.82,-56.52,55.31,82,0,7.25,clear sky,0,0
286,Mapiripan,CO,2020-02-23 06:47:54,2.89,-72.13,76.93,80,99,3.51,overcast clouds,0,0
287,Nan,TH,2020-02-23 06:47:54,18.83,100.67,86.0,37,0,3.36,clear sky,0,0
288,Batemans Bay,AU,2020-02-23 06:43:15,-35.72,150.18,75.0,79,82,14.0,broken clouds,0,0
289,Kungurtug,RU,2020-02-23 06:47:54,50.6,97.52,19.65,91,100,4.03,light snow,0,0.44
290,Vestmannaeyjar,IS,2020-02-23 06:41:03,63.44,-20.27,37.89,59,87,30.24,light snow,0,1.25
291,Bulgan,MN,2020-02-23 06:47:55,48.81,103.53,22.64,74,97,5.28,overcast clouds,0,0
292,Cooma,AU,2020-02-23 06:43:16,-36.23,149.13,77.0,36,82,9.17,broken clouds,0,0
293,Maniitsoq,GL,2020-02-23 06:44:47,65.42,-52.9,11.12,58,94,7.67,overcast clouds,0,0
294,Komsomolskiy,UZ,2020-02-23 06:42:05,40.43,71.72,51.8,66,78,2.24,haze,0,0
295,Sakaiminato,JP,2020-02-23 06:47:55,35.55,133.23,50.0,43,75,14.99,broken clouds,0,0
296,Mercedes,AR,2020-02-23 06:47:56,-34.65,-59.43,61.0,52,0,1.99,clear sky,0,0
297,Iqaluit,CA,2020-02-23 06:39:50,63.75,-68.51,-31.0,66,20,18.34,few clouds,0,0
298,Popondetta,PG,2020-02-23 06:47:56,-8.75,148.25,82.15,78,60,4.52,light rain,2.13,0
299,Kholm,RU,2020-02-23 06:38:00,59.27,32.85,36.46,83,100,12.8,light snow,0,0.44
300,Tongliao,CN,2020-02-23 06:47:56,43.61,122.27,45.36,24,100,19.71,overcast clouds,0,0
301,Vaitape,PF,2020-02-23 06:44:05,-16.52,-151.75,83.34,70,37,9.15,scattered clouds,0,0
302,Vostok,RU,2020-02-23 06:41:46,46.49,135.88,15.33,88,83,6.67,broken clouds,0,0
303,Comodoro Rivadavia,AR,2020-02-23 06:39:52,-45.87,-67.5,73.4,31,19,19.46,few clouds,0,0
304,Tessalit,ML,2020-02-23 06:47:57,20.2,1.01,66.83,17,59,12.64,broken clouds,0,0
305,Cururupu,BR,2020-02-23 06:47:57,-1.83,-44.87,72.91,98,97,4.0,moderate rain,5.44,0
306,La Ronge,CA,2020-02-23 06:45:00,55.1,-105.28,30.2,68,20,11.41,few clouds,0,0
307,Ingraj Bazar,IN,2020-02-23 06:47:58,25.0,88.15,84.47,33,59,5.44,light rain,0.25,0
308,Gorontalo,ID,2020-02-23 06:47:58,0.54,123.06,87.78,58,62,1.66,light rain,0.19,0
309,Upernavik,GL,2020-02-23 06:47:58,72.79,-56.15,-12.86,94,69,2.82,broken clouds,0,0
310,Taoudenni,ML,2020-02-23 06:42:01,22.68,-3.98,70.12,14,65,12.55,broken clouds,0,0
311,Snezhnogorsk,RU,2020-02-23 06:47:58,69.19,33.25,32.0,98,40,4.47,scattered clouds,0,0
312,Reconquista,AR,2020-02-23 06:47:59,-29.15,-59.65,58.28,61,27,4.34,scattered clouds,0,0
313,Along,IN,2020-02-23 06:47:59,28.17,94.77,77.27,35,56,0.83,broken clouds,0,0
314,Paamiut,GL,2020-02-23 06:41:54,61.99,-49.67,21.49,85,100,10.8,light snow,0,1.19
315,Jodar,ES,2020-02-23 06:47:59,37.84,-3.35,44.01,69,24,4.94,few clouds,0,0
316,Vila Velha,BR,2020-02-23 06:42:18,-20.33,-40.29,73.4,88,90,6.93,light rain,0,0
317,Churapcha,RU,2020-02-23 06:48:00,62.0,132.43,3.74,90,100,2.91,overcast clouds,0,0
318,Bengkulu,ID,2020-02-23 06:48:00,-3.8,102.27,92.53,47,0,2.28,clear sky,0,0
319,Selje,NO,2020-02-23 06:48:00,62.05,5.35,39.2,64,100,14.99,light snow,0,1.31
320,Olga,RU,2020-02-23 06:48:00,43.74,135.29,30.2,55,81,26.42,broken clouds,0,0
321,Samarai,PG,2020-02-23 06:41:11,-10.62,150.67,85.24,78,52,5.19,light rain,1.56,0
322,Deputatskiy,RU,2020-02-23 06:43:53,69.3,139.9,-13.99,99,88,2.1,overcast clouds,0,0
323,Port Macquarie,AU,2020-02-23 06:47:03,-31.43,152.92,75.99,64,75,11.41,broken clouds,0,0
324,Hasaki,JP,2020-02-23 06:48:01,35.73,140.83,57.0,22,20,19.46,few clouds,0,0
325,Mayo,US,2020-02-23 06:43:29,38.89,-76.51,37.99,58,1,4.47,clear sky,0,0
326,San Cristobal,VE,2020-02-23 06:41:17,7.77,-72.22,56.17,97,100,1.83,light rain,0.75,0
327,Mumford,GH,2020-02-23 06:48:02,5.26,-0.76,78.35,92,76,3.33,broken clouds,0,0
328,Kisaran,ID,2020-02-23 06:48:02,2.98,99.62,91.08,47,6,4.25,clear sky,0,0
329,Novita,CO,2020-02-23 06:48:02,4.96,-76.61,69.93,95,71,1.23,broken clouds,0,0
330,Ndola,ZM,2020-02-23 06:48:02,-12.96,28.64,69.91,93,100,2.46,light rain,1.56,0
331,Yefremov,RU,2020-02-23 06:48:02,53.15,38.1,30.51,95,100,22.08,light snow,0,1
332,Punta Cardon,VE,2020-02-23 06:48:03,11.66,-70.22,75.31,82,100,13.69,overcast clouds,0,0
333,Netivot,IL,2020-02-23 06:48:03,31.42,34.59,55.99,79,96,1.39,light rain,0.12,0
334,Maputo,MZ,2020-02-23 06:48:03,-25.97,32.59,75.2,83,75,17.22,broken clouds,0,0
335,Gornozavodsk,RU,2020-02-23 06:48:03,58.38,58.32,26.15,87,100,12.01,light snow,0,0.13
336,Obukhiv,UA,2020-02-23 06:48:04,50.11,30.62,41.0,82,75,11.18,light rain,0,0
337,Dehloran,IR,2020-02-23 06:48:04,32.69,47.27,67.66,39,34,5.3,scattered clouds,0,0
338,Noshiro,JP,2020-02-23 06:48:04,40.2,140.02,37.4,67,75,18.34,light shower snow,0,0
339,Lompoc,US,2020-02-23 06:39:28,34.64,-120.46,55.4,76,90,8.05,overcast clouds,0,0
340,Cockburn Town,TC,2020-02-23 06:43:45,21.46,-71.14,76.1,80,22,18.41,few clouds,0,0
341,Drawsko Pomorskie,PL,2020-02-23 06:48:05,53.53,15.81,42.8,60,20,11.41,few clouds,0,0
342,Khani,GE,2020-02-23 06:48:05,41.96,42.96,46.4,93,90,1.12,overcast clouds,0,0
343,Baykit,RU,2020-02-23 06:48:05,61.67,96.37,21.09,88,75,3.29,broken clouds,0,0
344,Xiangfan,CN,2020-02-23 06:48:06,32.04,112.14,67.42,36,52,5.3,broken clouds,0,0
345,San Policarpo,PH,2020-02-23 06:48:06,12.18,125.51,81.45,73,0,13.29,light rain,0.5,0
346,Waddan,LY,2020-02-23 06:42:04,29.16,16.14,50.67,75,22,11.88,few clouds,0,0
347,Belmonte,BR,2020-02-23 06:43:43,-15.86,-38.88,78.8,83,20,3.36,few clouds,0,0
348,Tazovskiy,RU,2020-02-23 06:48:06,67.47,78.7,22.69,91,100,19.28,light snow,0,0.13
349,Fortuna,US,2020-02-23 06:48:07,40.6,-124.16,48.99,81,90,3.38,overcast clouds,0,0
350,Khash,IR,2020-02-23 06:48:07,28.22,61.22,61.7,47,0,13.13,clear sky,0,0
351,Kruisfontein,ZA,2020-02-23 06:45:18,-34.0,24.73,61.74,63,50,3.74,scattered clouds,0,0
352,Coihaique,CL,2020-02-23 06:48:07,-45.58,-72.07,44.06,92,31,6.73,scattered clouds,0,0
353,Codrington,AU,2020-02-23 06:48:07,-38.27,141.97,64.18,80,20,13.38,few clouds,0,0
354,Ossora,RU,2020-02-23 06:42:48,59.24,163.07,-5.46,81,52,0.4,broken clouds,0,0
355,Rocha,UY,2020-02-23 06:41:23,-34.48,-54.33,52.21,91,0,2.33,clear sky,0,0
356,Klaksvik,FO,2020-02-23 06:40:40,62.23,-6.59,32.0,93,100,8.05,light snow,0,1.19
357,Seoul,KR,2020-02-23 06:40:04,37.57,126.98,46.4,28,1,5.82,clear sky,0,0
358,Dingle,PH,2020-02-23 06:40:51,11.0,122.67,82.89,66,33,16.75,light rain,0.25,0
359,Kieta,PG,2020-02-23 06:48:09,-6.22,155.63,85.44,66,74,2.15,light rain,0.94,0
360,Christchurch,NZ,2020-02-23 06:45:00,-43.53,172.63,64.4,59,0,16.11,clear sky,0,0
361,Nanpiao,CN,2020-02-23 06:48:09,41.1,120.75,47.7,35,32,19.33,scattered clouds,0,0
362,Mount Gambier,AU,2020-02-23 06:41:17,-37.83,140.77,78.8,29,3,17.22,clear sky,0,0
363,Kyaukse,MM,2020-02-23 06:48:10,21.6,96.13,87.8,35,75,3.36,broken clouds,0,0
364,Barabinsk,RU,2020-02-23 06:42:40,55.36,78.36,19.9,92,81,3.58,broken clouds,0,0
365,Tsaratanana,MG,2020-02-23 06:48:10,-16.78,47.65,72.64,83,93,4.29,overcast clouds,0,0
366,Svetlaya,RU,2020-02-23 06:48:10,46.54,138.33,32.47,65,100,10.16,overcast clouds,0,0
367,Valparaiso,CL,2020-02-23 06:43:28,-33.04,-71.63,47.86,89,0,3.18,clear sky,0,0
368,Nuevo Progreso,MX,2020-02-23 06:48:11,23.17,-97.95,63.0,91,75,1.81,light rain,0.81,0
369,Namatanai,PG,2020-02-23 06:48:11,-3.67,152.43,85.93,73,98,12.71,overcast clouds,0,0
370,Gamboma,CG,2020-02-23 06:43:23,-1.88,15.86,77.0,71,100,4.41,overcast clouds,0,0
371,Esperance,AU,2020-02-23 06:40:59,-33.87,121.9,77.0,61,31,16.11,scattered clouds,0,0
372,Muzhi,RU,2020-02-23 06:48:11,65.37,64.67,30.56,82,0,16.91,clear sky,0,0
373,Amalapuram,IN,2020-02-23 06:48:12,16.58,82.02,84.2,62,0,4.7,haze,0,0
374,Rakai,UG,2020-02-23 06:48:12,-0.72,31.48,73.85,66,100,3.91,overcast clouds,0,0
375,Rawson,AR,2020-02-23 06:45:07,-43.3,-65.1,71.58,41,0,24.2,clear sky,0,0
376,Ayan,RU,2020-02-23 06:48:12,56.45,138.17,7.48,88,0,2.71,clear sky,0,0
377,Egvekinot,RU,2020-02-23 06:48:13,66.32,-179.17,-33.97,99,12,2.21,few clouds,0,0
378,Sarangani,PH,2020-02-23 06:48:13,5.4,125.46,81.25,76,50,24.38,scattered clouds,0,0
379,Umm Kaddadah,SD,2020-02-23 06:48:13,13.6,26.69,65.25,18,10,19.3,clear sky,0,0
380,Tuban,ID,2020-02-23 06:48:13,-6.9,112.06,85.39,76,62,8.3,light rain,1.81,0
381,Maragogi,BR,2020-02-23 06:48:13,-9.01,-35.22,81.34,81,92,11.48,light rain,0.75,0
382,Dongli,CN,2020-02-23 06:48:14,23.57,116.82,75.2,38,0,4.47,clear sky,0,0
383,Vilhena,BR,2020-02-23 06:46:37,-12.74,-60.15,66.02,98,100,1.45,overcast clouds,0,0
384,Tatawin,TN,2020-02-23 06:48:14,32.93,10.45,48.2,87,40,4.7,scattered clouds,0,0
385,Aksu,CN,2020-02-23 06:41:57,41.12,80.26,45.01,31,0,3.11,clear sky,0,0
386,Ngaoundere,CM,2020-02-23 06:48:15,7.32,13.58,64.4,34,30,6.93,scattered clouds,0,0
387,Dezful,IR,2020-02-23 06:48:15,32.38,48.41,67.5,39,58,1.5,broken clouds,0,0
388,Kabare,CD,2020-02-23 06:47:47,-2.47,28.82,65.89,89,100,1.57,overcast clouds,0,0
389,Misawa,JP,2020-02-23 06:45:55,40.68,141.36,33.01,61,75,24.16,light shower snow,0,0
390,Hutchinson,US,2020-02-23 06:45:39,38.06,-97.93,50.0,66,1,11.41,clear sky,0,0
391,Miyako,JP,2020-02-23 06:48:16,39.64,141.95,38.48,53,1,24.25,clear sky,0,0
392,Le Port,RE,2020-02-23 06:43:48,-20.94,55.29,82.4,58,100,3.36,overcast clouds,0,0
393,Grindavik,IS,2020-02-23 06:40:54,63.84,-22.43,32.0,67,75,24.16,shower rain,0,0
394,Bucerias,MX,2020-02-23 06:48:17,20.75,-105.33,75.99,94,40,4.29,scattered clouds,0,0
395,Bure,ET,2020-02-23 06:48:17,10.7,37.07,76.71,24,17,3.0,few clouds,0,0
396,Monte Santo,BR,2020-02-23 06:43:29,-10.44,-39.33,71.78,88,90,3.18,light rain,0.19,0
397,West Bay,KY,2020-02-23 06:48:17,19.37,-81.42,75.0,71,28,1.99,scattered clouds,0,0
398,Rundu,NA,2020-02-23 06:48:17,-17.93,19.77,69.8,88,1,5.82,clear sky,0,0
399,Santa Isabel Do Rio Negro,BR,2020-02-23 06:46:53,-0.41,-65.02,76.21,85,99,1.83,overcast clouds,0,0
400,Meulaboh,ID,2020-02-23 06:44:25,4.14,96.13,83.55,68,9,5.35,light rain,0.12,0
401,Acarau,BR,2020-02-23 06:42:12,-2.89,-40.12,73.17,93,100,2.3,overcast clouds,0,0
402,San Martin,AR,2020-02-23 06:48:18,-33.08,-68.47,62.35,46,0,4.23,clear sky,0,0
403,Salalah,OM,2020-02-23 06:48:18,17.02,54.09,77.0,65,0,2.24,clear sky,0,0
404,Kinshasa,CD,2020-02-23 06:48:00,-4.32,15.32,75.2,94,40,2.84,scattered clouds,0,0
405,Katsuura,JP,2020-02-23 06:48:19,35.13,140.3,60.01,26,20,12.75,few clouds,0,0
406,Fort Smith,US,2020-02-23 06:48:19,35.39,-94.4,46.99,45,1,3.83,clear sky,0,0
407,Ambilobe,MG,2020-02-23 06:43:59,-13.2,49.05,84.56,72,20,1.99,few clouds,0,0
408,Broken Hill,AU,2020-02-23 06:41:42,-31.95,141.43,87.8,29,40,14.99,scattered clouds,0,0
409,Fuerte Olimpo,PY,2020-02-23 06:41:39,-21.04,-57.87,66.56,47,0,6.91,clear sky,0,0
410,Gloucester,GB,2020-02-23 06:47:49,51.87,-2.24,55.0,100,90,34.45,light rain,0,0
411,Ilulissat,GL,2020-02-23 06:46:53,69.22,-51.1,1.4,45,91,8.05,overcast clouds,0,0
412,Akita,JP,2020-02-23 06:48:20,39.72,140.12,37.4,59,75,25.28,light shower snow,0,0
413,Sabha,LY,2020-02-23 06:41:13,27.04,14.43,47.43,71,0,9.78,clear sky,0,0
414,Gornyak,RU,2020-02-23 06:48:21,50.99,81.47,19.83,95,100,8.7,light snow,0,0.31
415,Starodub,RU,2020-02-23 06:48:21,52.58,32.76,36.46,96,100,19.08,light rain,2,0
416,Baracoa,CU,2020-02-23 06:48:21,20.35,-74.5,74.41,82,72,10.58,moderate rain,3.19,0
417,Bosaso,SO,2020-02-23 06:48:21,11.28,49.18,78.8,74,20,6.93,few clouds,0,0
418,Namanyere,TZ,2020-02-23 06:48:22,-7.52,31.05,68.76,89,100,2.86,light rain,0.13,0
419,Matadi,CD,2020-02-23 06:48:22,-5.82,13.45,76.48,94,100,6.73,moderate rain,5.75,0
420,Lewistown,US,2020-02-23 06:48:22,40.6,-77.57,30.0,73,1,4.18,clear sky,0,0
421,Mulege,MX,2020-02-23 06:48:22,26.88,-111.98,66.99,68,89,3.47,overcast clouds,0,0
422,Tshikapa,CD,2020-02-23 06:48:23,-6.42,20.8,73.69,96,100,2.06,light rain,2.37,0
423,Nioro,GM,2020-02-23 06:48:23,13.35,-15.75,70.23,37,97,3.91,overcast clouds,0,0
424,Sakassou,CI,2020-02-23 06:48:23,7.45,-5.29,78.8,94,20,11.41,few clouds,0,0
425,Alofi,NU,2020-02-23 06:48:23,-19.06,-169.92,79.93,86,100,18.05,light rain,2.94,0
426,Vao,NC,2020-02-23 06:41:22,-22.67,167.48,79.11,76,36,14.27,scattered clouds,0,0
427,Port-Gentil,GA,2020-02-23 06:48:24,-0.72,8.78,82.4,94,75,4.7,broken clouds,0,0
428,Taltal,CL,2020-02-23 06:48:24,-25.4,-70.48,59.23,90,39,4.34,scattered clouds,0,0
429,Pogradec,AL,2020-02-23 06:48:24,40.9,20.65,28.4,79,20,3.36,few clouds,0,0
430,Mujiayingzi,CN,2020-02-23 06:48:24,42.12,118.78,42.19,32,81,17.92,broken clouds,0,0
431,Arsenyev,RU,2020-02-23 06:48:24,44.16,133.27,20.71,76,0,10.16,clear sky,0,0
432,Basoko,CD,2020-02-23 06:48:25,1.24,23.62,75.72,60,69,2.55,broken clouds,0,0
433,Talara,PE,2020-02-23 06:48:25,-4.58,-81.27,76.12,86,99,8.05,overcast clouds,0,0
434,Dunedin,NZ,2020-02-23 06:39:35,-45.87,170.5,62.01,61,93,3.98,overcast clouds,0,0
435,Haines Junction,CA,2020-02-23 06:48:25,60.75,-137.51,4.1,89,42,4.79,scattered clouds,0,0
436,Turhal,TR,2020-02-23 06:48:25,40.39,36.08,41.0,65,75,8.05,broken clouds,0,0
437,Westport,US,2020-02-23 06:40:58,41.14,-73.36,37.0,74,1,8.08,clear sky,0,0
438,Sibolga,ID,2020-02-23 06:41:47,1.74,98.78,91.22,42,0,4.27,clear sky,0,0
439,Vizinga,RU,2020-02-23 06:48:26,61.07,50.1,29.35,87,100,17.2,light snow,0,0.13
440,Thinadhoo,MV,2020-02-23 06:48:26,0.53,72.93,83.07,80,95,14.38,overcast clouds,0,0
441,Banfora,BF,2020-02-23 06:48:27,10.63,-4.77,72.05,15,0,5.48,clear sky,0,0
442,Shibetsu,JP,2020-02-23 06:48:27,43.66,145.13,32.0,84,75,18.34,broken clouds,0,0
443,Goderich,CA,2020-02-23 06:44:33,43.75,-81.72,36.0,67,17,1.99,few clouds,0,0
444,Bangassou,CF,2020-02-23 06:48:27,4.74,22.82,77.29,19,19,3.29,few clouds,0,0
445,Merzig,DE,2020-02-23 06:48:27,49.45,6.63,50.0,100,90,18.34,light rain,0,0
446,Katherine,AU,2020-02-23 06:48:28,-14.47,132.27,100.4,29,40,8.05,scattered clouds,0,0
447,Krugersdorp,ZA,2020-02-23 06:48:28,-26.09,27.78,71.01,73,40,6.93,scattered clouds,0,0
448,Yerbogachen,RU,2020-02-23 06:41:36,61.28,108.01,19.08,92,97,6.53,overcast clouds,0,0
449,Vallenar,CL,2020-02-23 06:44:01,-28.57,-70.76,56.64,88,0,1.36,clear sky,0,0
450,Nome,US,2020-02-23 06:48:29,64.5,-165.41,-5.8,83,90,11.41,overcast clouds,0,0
451,Winchester,GB,2020-02-23 06:48:29,51.07,-1.32,53.6,93,90,26.4,overcast clouds,0,0
452,Ust-Kut,RU,2020-02-23 06:48:29,56.79,105.77,18.64,89,100,7.4,light snow,0,0.13
453,Zhezkazgan,KZ,2020-02-23 06:43:12,47.8,67.71,17.6,92,90,6.71,mist,0,0
454,Shizunai,JP,2020-02-23 06:47:49,42.33,142.37,28.09,91,100,26.08,snow,0,2.19
455,Asfi,MA,2020-02-23 06:48:30,32.3,-9.24,58.53,44,0,7.02,clear sky,0,0
456,Antofagasta,CL,2020-02-23 06:48:30,-23.65,-70.4,64.17,86,36,3.06,scattered clouds,0,0
457,Borogontsy,RU,2020-02-23 06:42:52,62.67,131.17,0.73,93,100,3.42,overcast clouds,0,0
458,Asyut,EG,2020-02-23 06:48:31,27.18,31.18,51.76,55,46,5.41,scattered clouds,0,0
459,Hokitika,NZ,2020-02-23 06:48:31,-42.72,170.97,61.72,74,0,15.84,clear sky,0,0
460,Verkhnyaya Inta,RU,2020-02-23 06:48:31,65.98,60.31,26.06,83,95,11.52,overcast clouds,0,0
461,Guadalupe Y Calvo,MX,2020-02-23 06:48:31,26.1,-106.97,48.2,83,81,3.89,broken clouds,0,0
462,Crema,IT,2020-02-23 06:48:32,45.36,9.67,46.0,80,82,3.36,broken clouds,0,0
463,Hay River,CA,2020-02-23 06:43:16,60.82,-115.8,-0.4,84,75,2.24,broken clouds,0,0
464,Macherla,IN,2020-02-23 06:48:32,16.48,79.43,86.76,36,27,8.01,scattered clouds,0,0
465,Karabash,RU,2020-02-23 06:48:32,55.48,60.22,25.88,90,66,4.61,broken clouds,0,0
466,Abomsa,ET,2020-02-23 06:48:32,9.98,39.98,73.63,55,23,5.93,few clouds,0,0
467,Yazman,PK,2020-02-23 06:48:32,29.12,71.74,77.22,36,0,8.39,clear sky,0,0
468,Omagari,JP,2020-02-23 06:48:33,39.45,140.48,37.4,59,75,25.28,light shower snow,0,0
469,Hinton,CA,2020-02-23 06:48:33,53.4,-117.59,9.91,81,0,6.11,clear sky,0,0
470,Colares,PT,2020-02-23 06:48:33,38.8,-9.45,61.0,62,6,6.93,clear sky,0,0
471,Esna,EG,2020-02-23 06:42:10,25.29,32.55,56.62,36,73,4.81,broken clouds,0,0
472,Ust-Shonosha,RU,2020-02-23 06:48:33,61.15,41.34,32.0,91,100,20.65,light snow,0,1.5
473,Najran,SA,2020-02-23 06:41:24,17.49,44.13,71.6,30,5,6.93,clear sky,0,0
474,Lazaro Cardenas,MX,2020-02-23 06:45:51,17.96,-102.2,72.77,88,0,1.23,clear sky,0,0
475,Nabire,ID,2020-02-23 06:48:34,-3.37,135.48,85.96,67,89,6.58,overcast clouds,0,0
476,Puertollano,ES,2020-02-23 06:48:34,38.69,-4.11,42.93,47,34,2.08,scattered clouds,0,0
477,Jacareacanga,BR,2020-02-23 06:42:05,-6.22,-57.75,72.54,98,100,1.7,overcast clouds,0,0
478,Mangrol,IN,2020-02-23 06:43:23,21.12,70.12,80.55,52,0,8.34,clear sky,0,0
479,Inongo,CD,2020-02-23 06:48:35,-1.95,18.27,77.68,78,26,2.75,scattered clouds,0,0
480,Doka,SD,2020-02-23 06:48:35,13.52,35.77,75.16,35,0,6.67,clear sky,0,0
481,Arman,RU,2020-02-23 06:48:35,59.7,150.17,1.45,91,100,2.82,overcast clouds,0,0
482,Bolivar,US,2020-02-23 06:48:35,37.61,-93.41,44.01,35,1,6.93,clear sky,0,0
483,San Pedro,PH,2020-02-23 06:41:37,14.35,121.02,87.8,45,40,17.22,scattered clouds,0,0
484,Luderitz,NA,2020-02-23 06:48:36,-26.65,15.16,66.2,77,0,9.17,clear sky,0,0
485,Vire,FR,2020-02-23 06:48:36,48.92,-0.83,52.0,93,90,24.16,overcast clouds,0,0
486,Olinda,BR,2020-02-23 06:48:36,-8.01,-34.86,82.4,78,40,3.36,scattered clouds,0,0
487,Kupang,ID,2020-02-23 06:42:39,-10.17,123.58,86.0,74,75,11.41,broken clouds,0,0
488,Balkanabat,TM,2020-02-23 06:48:37,39.51,54.37,52.21,55,88,3.22,overcast clouds,0,0
489,Antalya,TR,2020-02-23 06:48:37,36.77,30.72,48.2,81,75,6.93,broken clouds,0,0
490,Coxim,BR,2020-02-23 06:40:45,-18.51,-54.76,70.54,97,71,2.62,broken clouds,0,0
491,Johnston,US,2020-02-23 06:48:37,35.53,-78.4,34.0,72,1,5.03,clear sky,0,0
492,Pinhao,BR,2020-02-23 06:48:38,-25.7,-51.66,59.9,82,46,6.53,scattered clouds,0,0
493,Jishu,CN,2020-02-23 06:48:38,44.32,126.8,28.99,75,90,14.56,overcast clouds,0,0
494,Luganville,VU,2020-02-23 06:48:38,-15.53,167.17,80.38,76,22,5.86,few clouds,0,0
495,Marawi,PH,2020-02-23 06:48:38,8.0,124.29,82.99,80,0,5.99,clear sky,0,0
496,Puerto Escondido,MX,2020-02-23 06:40:57,15.85,-97.07,71.11,57,0,3.91,clear sky,0,0
497,Pitimbu,BR,2020-02-23 06:42:27,-7.47,-34.81,78.8,88,20,2.24,few clouds,0,0
498,Palu,ID,2020-02-23 06:48:39,-0.89,119.87,77.86,86,59,3.6,moderate rain,3.12,0
499,Kahramanmaras,TR,2020-02-23 06:48:39,38.0,37.0,46.4,100,75,3.36,broken clouds,0,0
500,Longfeng,CN,2020-02-23 06:48:39,46.55,125.12,27.81,81,100,12.41,overcast clouds,0,0
501,Soroca,MD,2020-02-23 06:48:39,48.16,28.3,37.0,74,100,4.0,overcast clouds,0,0
502,Pontes E Lacerda,BR,2020-02-23 06:48:40,-15.23,-59.34,63.84,96,100,1.45,overcast clouds,0,0
503,Victor Harbor,AU,2020-02-23 06:48:40,-35.57,138.62,88.0,17,12,10.29,few clouds,0,0
504,Norfolk,US,2020-02-23 06:48:40,42.17,-71.25,33.01,73,1,4.79,clear sky,0,0
505,Kedgwick,CA,2020-02-23 06:48:40,47.64,-67.34,18.79,95,9,6.42,clear sky,0,0
506,Saint-Leu,RE,2020-02-23 06:48:41,-21.15,55.28,82.4,65,75,3.36,broken clouds,0,0
507,Mawlaik,MM,2020-02-23 06:48:41,23.63,94.42,90.52,24,35,2.86,scattered clouds,0,0
508,Mehamn,NO,2020-02-23 06:48:41,71.04,27.85,24.84,84,0,10.92,clear sky,0,0
509,Yining,CN,2020-02-23 06:48:41,29.04,114.56,70.84,52,37,2.17,scattered clouds,0,0
510,Osvaldo Cruz,BR,2020-02-23 06:48:41,-21.8,-50.88,68.0,88,75,9.17,broken clouds,0,0
511,Trat,TH,2020-02-23 06:48:42,12.5,102.5,100.0,34,20,19.46,few clouds,0,0
512,Beroroha,MG,2020-02-23 06:48:42,-21.67,45.17,79.77,75,63,5.99,broken clouds,0,0
513,Sao Jose Da Coroa Grande,BR,2020-02-23 06:45:26,-8.9,-35.15,81.34,81,92,11.48,light rain,0.75,0
514,Kanigoro,ID,2020-02-23 06:48:42,-8.13,112.22,85.87,71,8,5.1,light rain,2.75,0
515,Santiago Del Estero,AR,2020-02-23 06:42:16,-27.8,-64.26,62.64,46,33,6.67,scattered clouds,0,0
516,Savannakhet,LA,2020-02-23 06:48:43,16.57,104.75,87.8,33,0,4.7,clear sky,0,0
517,Mwinilunga,ZM,2020-02-23 06:48:43,-11.74,24.43,67.32,92,100,2.75,overcast clouds,0,0
518,Russell,US,2020-02-23 06:45:34,32.35,-85.2,35.6,60,1,2.06,clear sky,0,0
519,Lac Du Bonnet,CA,2020-02-23 06:48:43,50.25,-96.06,24.01,91,87,5.99,overcast clouds,0,0
520,Sao Joao Da Barra,BR,2020-02-23 06:47:58,-21.64,-41.05,73.44,92,100,19.64,light rain,2.44,0
521,Muncar,ID,2020-02-23 06:48:44,-8.43,114.33,83.05,75,13,7.76,few clouds,0,0
522,Zlobin,HR,2020-02-23 06:48:44,45.29,14.65,42.8,87,99,4.21,overcast clouds,0,0
523,Nago,JP,2020-02-23 06:48:44,26.59,127.98,69.8,43,1,10.29,clear sky,0,0
524,Qaqortoq,GL,2020-02-23 06:48:44,60.72,-46.03,24.8,85,100,8.05,heavy snow,0,0
525,Nacala,MZ,2020-02-23 06:48:45,-14.54,40.67,84.2,83,40,10.29,scattered clouds,0,0
526,Anshun,CN,2020-02-23 06:48:45,26.25,105.93,58.28,76,100,17.07,light rain,0.13,0
527,Sidi Ali,DZ,2020-02-23 06:48:45,36.1,0.42,47.41,77,6,3.36,clear sky,0,0
528,Santa Marta,CO,2020-02-23 06:45:28,11.24,-74.2,62.1,86,96,3.38,overcast clouds,0,0
529,Kaseda,JP,2020-02-23 06:48:45,31.42,130.32,57.2,28,0,12.75,clear sky,0,0
530,Lewisporte,CA,2020-02-23 06:43:26,49.25,-55.05,23.0,79,75,17.22,broken clouds,0,0
531,Cabedelo,BR,2020-02-23 06:48:46,-6.98,-34.83,78.8,88,20,2.24,few clouds,0,0
532,Tiarei,PF,2020-02-23 06:43:18,-17.53,-149.33,82.4,74,20,3.36,few clouds,0,0
533,Novikovo,RU,2020-02-23 06:48:46,51.15,37.89,30.83,89,99,16.78,overcast clouds,0,0
534,Liverpool,GB,2020-02-23 06:40:53,53.41,-2.98,50.0,100,90,6.93,moderate rain,0,0
535,Pundaguitan,PH,2020-02-23 06:48:47,6.37,126.17,81.95,66,38,3.04,scattered clouds,0,0
536,Jizan,SA,2020-02-23 06:48:47,17.33,42.67,84.2,62,30,3.36,scattered clouds,0,0
537,Sorland,NO,2020-02-23 06:43:34,67.67,12.69,35.69,93,100,33.73,light snow,0,0.56
538,Hervey Bay,AU,2020-02-23 06:41:20,-25.3,152.85,78.01,94,75,12.75,light rain,0,0
539,Beloha,MG,2020-02-23 06:42:29,-25.17,45.05,84.92,62,51,10.83,broken clouds,0,0
540,Chiredzi,ZW,2020-02-23 06:48:47,-21.05,31.67,82.15,67,24,3.49,few clouds,0,0
541,Komono,JP,2020-02-23 06:48:48,35.0,136.52,53.6,53,40,25.28,scattered clouds,0,0
542,Bonthe,SL,2020-02-23 06:48:48,7.53,-12.51,78.42,91,28,3.06,scattered clouds,0,0
543,Inhapim,BR,2020-02-23 06:48:48,-19.55,-42.12,68.23,96,100,6.13,moderate rain,6.06,0
544,Lavrentiya,RU,2020-02-23 06:45:03,65.58,-171.0,-17.25,97,0,0.92,clear sky,0,0
545,Mackay,AU,2020-02-23 06:41:18,-21.15,149.2,80.6,88,90,13.87,overcast clouds,0,0
546,Mantenopolis,BR,2020-02-23 06:47:50,-18.86,-41.12,71.08,98,100,3.06,light rain,1.13,0
547,Buin,CL,2020-02-23 06:48:49,-33.73,-70.75,63.32,44,0,1.99,clear sky,0,0
548,Sevnica,SI,2020-02-23 06:48:49,46.01,15.32,50.0,53,100,17.22,overcast clouds,0,0
549,Pemangkat,ID,2020-02-23 06:43:21,1.17,108.97,83.03,82,59,9.64,light rain,2.63,0
550,Rognan,NO,2020-02-23 06:48:50,67.1,15.39,37.99,74,75,25.28,broken clouds,0,0
551,Ahuimanu,US,2020-02-23 06:42:59,21.44,-157.84,75.2,64,20,10.29,few clouds,0,0
552,College,US,2020-02-23 06:41:38,64.86,-147.8,5.0,71,90,10.29,overcast clouds,0,0
553,Kiunga,PG,2020-02-23 06:48:50,-6.12,141.29,94.33,49,57,6.58,broken clouds,0,0
554,Upata,VE,2020-02-23 06:41:36,8.01,-62.4,70.03,80,27,2.84,scattered clouds,0,0
555,Pendencias,BR,2020-02-23 06:48:51,-5.26,-36.72,76.89,88,91,5.95,overcast clouds,0,0
556,Parabel,RU,2020-02-23 06:48:51,58.7,81.48,12.31,89,0,2.71,clear sky,0,0
557,De Aar,ZA,2020-02-23 06:48:51,-30.65,24.01,61.54,59,0,27.0,clear sky,0,0
558,Ha Tinh,VN,2020-02-23 06:48:51,18.33,105.9,68.61,84,18,10.38,few clouds,0,0
559,Jaciara,BR,2020-02-23 06:48:52,-15.97,-54.97,69.4,99,99,0.47,overcast clouds,0,0
560,Zyryanovsk,KZ,2020-02-23 06:48:52,49.74,84.27,28.83,96,100,13.71,snow,0,1.81
561,Xingcheng,CN,2020-02-23 06:48:52,40.62,120.72,47.5,36,42,19.6,scattered clouds,0,0
562,Trinidad,BO,2020-02-23 06:40:52,-14.83,-64.9,66.51,70,100,1.63,overcast clouds,0,0
563,Turbat,PK,2020-02-23 06:43:56,26.0,63.04,76.57,31,0,3.4,clear sky,0,0
564,Altay,CN,2020-02-23 06:43:55,47.87,88.12,21.47,96,100,5.12,light snow,0,1.5
